[
    {
        "id": "kartlandas_max",
        "name": "Kartlandas Max",
        "lat": 54.6548,
        "lng": 25.2135,
        "mapsLink": "https://maps.app.goo.gl/ZuopMfesFBDBQPQN7",
        "color": "#e87a4a",
        "note": "Technical indoor circuit",
        "configs": [
            "Kartlandas Max 2026"
        ],
        "sessions": 6,
        "bestLap": "00:38.361",
        "bestDriver": "Kęstas Č."
    },
    {
        "id": "speedway",
        "name": "Speedway",
        "lat": 54.7974894630313,
        "lng": 24.56925536425135,
        "mapsLink": "https://maps.app.goo.gl/oYmMNt3N2fXehzVf9",
        "color": "#4ab8e8",
        "note": "Outdoor circuit · Elektrėnai",
        "configs": [
            "3 konfiguracija",
            "Winter 2026",
            "Rain"
        ],
        "sessions": 14,
        "bestLap": "00:44.327",
        "bestDriver": "Povilas L."
    },
    {
        "id": "plytines",
        "name": "Plytinės Kartodromas",
        "lat": 54.665,
        "lng": 25.21,
        "mapsLink": "https://maps.app.goo.gl/AmF51NGm8bysceeN9",
        "color": "#a84ae8",
        "note": "Professional karting circuit",
        "configs": [
            "Summer",
            "Winter"
        ],
        "sessions": 11,
        "bestLap": "00:44.030",
        "bestDriver": "Povilas L."
    },
    {
        "id": "vilko",
        "name": "Vilko Kartodromas",
        "lat": 54.72,
        "lng": 25.32,
        "mapsLink": "https://maps.app.goo.gl/9erykKE9f58EYZ9TA",
        "color": "#e84a4a",
        "note": "Technical indoor circuit",
        "configs": [
            "wolf 2025"
        ],
        "sessions": 2,
        "bestLap": "00:18.050",
        "bestDriver": "Kęstas Č."
    },
    {
        "id": "kartlandas",
        "name": "Kartlandas Kaunas",
        "lat": 54.8985,
        "lng": 23.9036,
        "mapsLink": "https://maps.app.goo.gl/7Q9SbwwcmwyNqUH56",
        "color": "#e8c84a",
        "note": "High-speed Kaunas circuit",
        "configs": [
            "2025"
        ],
        "sessions": 3,
        "bestLap": "00:25.906",
        "bestDriver": "Povilas L."
    },
    {
        "id": "gokarting_center_krakow",
        "name": "GOKARTING CENTER KRAKOW",
        "lat": 50.0205,
        "lng": 20.0384,
        "mapsLink": "https://maps.app.goo.gl/fbAaPCaugyx4FDjYA",
        "color": "#4a4ae8",
        "note": "Major Polish venue",
        "configs": [
            "2025"
        ],
        "sessions": 1,
        "bestLap": "00:28.790",
        "bestDriver": "Ignas M."
    }
]