[
    {
        "id": "plytinės_kartodromas",
        "name": "Plytinės Kartodromas",
        "lat": 54.7250099,
        "lng": 25.3467219,
        "mapsLink": "https://maps.app.goo.gl/AmF51NGm8bysceeN9",
        "color": "hsl(269, 78%, 62%)",
        "configs": [
            "Winter",
            "Summer"
        ],
        "sessions": 23,
        "bestLap": "00:43.150",
        "bestDriver": "Ignas M."
    },
    {
        "id": "speedway",
        "name": "Speedway",
        "lat": 54.7972092,
        "lng": 24.429372,
        "mapsLink": "https://maps.app.goo.gl/oYmMNt3N2fXehzVf9",
        "color": "hsl(182, 78%, 62%)",
        "configs": [
            "Rain",
            "3 konfiguracija",
            "Winter 2026"
        ],
        "sessions": 14,
        "bestLap": "00:44.327",
        "bestDriver": "Povilas L."
    },
    {
        "id": "kartlandas_kaunas",
        "name": "Kartlandas Kaunas",
        "lat": 54.9146582,
        "lng": 23.8407337,
        "mapsLink": "https://maps.app.goo.gl/7Q9SbwwcmwyNqUH56",
        "color": "hsl(116, 78%, 62%)",
        "configs": [
            "2025"
        ],
        "sessions": 3,
        "bestLap": "00:25.906",
        "bestDriver": "Povilas L."
    },
    {
        "id": "anykščių_kartodromas",
        "name": "Anykščių kartodromas",
        "lat": 55.518791,
        "lng": 25.0668037,
        "mapsLink": "https://maps.app.goo.gl/2J7pGZfQs3f174tR8",
        "color": "hsl(286, 78%, 62%)",
        "configs": [
            "2024"
        ],
        "sessions": 5,
        "bestLap": "00:45.330",
        "bestDriver": "Povilas L."
    },
    {
        "id": "𝗔𝘄𝗶𝘅_𝗥𝗮𝗰𝗶𝗻𝗴_𝗔𝗿𝗲𝗻𝗮",
        "name": "𝗔𝘄𝗶𝘅 𝗥𝗮𝗰𝗶𝗻𝗴 𝗔𝗿𝗲𝗻𝗮",
        "lat": 53.0184783,
        "lng": 18.5415042,
        "mapsLink": "https://maps.app.goo.gl/ybcsyhCrN3D1E2XbA",
        "color": "hsl(329, 78%, 62%)",
        "configs": [
            "2024"
        ],
        "sessions": 1,
        "bestLap": "01:02.505",
        "bestDriver": "Povilas L."
    },
    {
        "id": "tor_półwysep",
        "name": "Tor Półwysep",
        "lat": 54.7891707,
        "lng": 18.4222912,
        "mapsLink": "https://maps.app.goo.gl/EmVwycty7FxrB8TH7",
        "color": "hsl(240, 78%, 62%)",
        "configs": [
            "2024",
            "2025"
        ],
        "sessions": 3,
        "bestLap": "00:25.180",
        "bestDriver": "Povilas L."
    },
    {
        "id": "rudskogen_motorsenter",
        "name": "Rudskogen Motorsenter",
        "lat": 59.3679825,
        "lng": 11.2594467,
        "mapsLink": "https://maps.app.goo.gl/F1Skt3aC7h4SPi856",
        "color": "hsl(21, 78%, 62%)",
        "configs": [
            "Summer"
        ],
        "sessions": 2,
        "bestLap": "01:07.080",
        "bestDriver": "Vaidas R."
    },
    {
        "id": "kartlandas_max",
        "name": "Kartlandas Max",
        "lat": 54.6621119,
        "lng": 25.2017819,
        "mapsLink": "https://maps.app.goo.gl/ZuopMfesFBDBQPQN7",
        "color": "hsl(292, 78%, 62%)",
        "configs": [
            "Kartlandas Max 2026"
        ],
        "sessions": 7,
        "bestLap": "00:38.361",
        "bestDriver": "Kęstas Č."
    },
    {
        "id": "smalininkų_kartodromas",
        "name": "Smalininkų kartodromas",
        "lat": 0,
        "lng": 0,
        "mapsLink": "https://maps.app.goo.gl/959ZMAV6acyt6...",
        "color": "hsl(192, 78%, 62%)",
        "configs": [
            "2024"
        ],
        "sessions": 4,
        "bestLap": "00:59.000",
        "bestDriver": "Povilas L."
    },
    {
        "id": "𝗞𝗮𝗿𝘁𝗶𝗻𝗴_𝗦𝗮𝗹𝗼𝘂",
        "name": "𝗞𝗮𝗿𝘁𝗶𝗻𝗴 𝗦𝗮𝗹𝗼𝘂",
        "lat": 41.0920037,
        "lng": 1.1290256,
        "mapsLink": "https://maps.app.goo.gl/H4DpdF6T1XHRE6239",
        "color": "hsl(359, 78%, 62%)",
        "configs": [
            "2024"
        ],
        "sessions": 1,
        "bestLap": "00:51.862",
        "bestDriver": "Justas Ž."
    },
    {
        "id": "kartcenter_gdańsk_gokarty",
        "name": "KartCenter Gdańsk Gokarty",
        "lat": 54.3890499,
        "lng": 18.5136168,
        "mapsLink": "https://maps.app.goo.gl/RUBF4Y86mvd37qu67",
        "color": "hsl(42, 78%, 62%)",
        "configs": [
            "2025"
        ],
        "sessions": 1,
        "bestLap": "00:22.840",
        "bestDriver": "Povilas L."
    },
    {
        "id": "vilko_kartodromas",
        "name": "Vilko Kartodromas",
        "lat": 54.8883225,
        "lng": 23.9197686,
        "mapsLink": "https://maps.app.goo.gl/9erykKE9f58EYZ9TA",
        "color": "hsl(96, 78%, 62%)",
        "configs": [
            "wolf 2025"
        ],
        "sessions": 2,
        "bestLap": "00:18.050",
        "bestDriver": "Kęstas Č."
    },
    {
        "id": "𝗦𝗽𝗼𝗿𝘁𝗮_𝗸𝗼𝗺𝗽𝗹𝗲𝗸𝘀𝘀_𝟯𝟯𝟯",
        "name": "𝗦𝗽𝗼𝗿𝘁𝗮 𝗸𝗼𝗺𝗽𝗹𝗲𝗸𝘀𝘀 𝟯𝟯𝟯",
        "lat": 56.9501916,
        "lng": 24.4101832,
        "mapsLink": "https://goo.gl/maps/kZR3mou2NyC9NFx26",
        "color": "hsl(320, 78%, 62%)",
        "configs": [
            "2024"
        ],
        "sessions": 1,
        "bestLap": "00:51.010",
        "bestDriver": "Povilas L."
    },
    {
        "id": "gokarting_center_krakow",
        "name": "GOKARTING CENTER KRAKOW",
        "lat": 50.0271708,
        "lng": 20.0478606,
        "mapsLink": "https://maps.app.goo.gl/fbAaPCaugyx4FDjYA",
        "color": "hsl(305, 78%, 62%)",
        "configs": [
            "2025"
        ],
        "sessions": 1,
        "bestLap": "00:28.790",
        "bestDriver": "Ignas M."
    }
]