[
    {
        "id": "serbentu",
        "name": "Serbentų kartodromas",
        "lat": 55.9140472,
        "lng": 23.3348808,
        "mapsLink": "https://maps.app.goo.gl/8BmeaARd6nH8iZQ88",
        "color": "#4adee8",
        "note": "Outdoor circuit · Šiauliai",
        "configs": [
            "Summer"
        ],
        "sessions": 11,
        "bestLap": "01:06.823",
        "bestDriver": "Kęstas Č."
    },
    {
        "id": "speedway",
        "name": "Speedway",
        "lat": 54.7974894630313,
        "lng": 24.56925536425135,
        "mapsLink": "https://maps.app.goo.gl/oYmMNt3N2fXehzVf9",
        "color": "#4ab8e8",
        "note": "Outdoor circuit · Elektrėnai",
        "configs": [
            "2024",
            "3 konfiguracija",
            "Rain",
            "Winter 2026",
            "long"
        ],
        "sessions": 16,
        "bestLap": "00:44.327",
        "bestDriver": "Povilas L."
    },
    {
        "id": "plytines",
        "name": "Plytinės Kartodromas",
        "lat": 54.724858099752225,
        "lng": 25.349237826984915,
        "mapsLink": "https://maps.app.goo.gl/AmF51NGm8bysceeN9",
        "color": "#a84ae8",
        "note": "Professional karting circuit",
        "configs": [
            "Summer",
            "Winter"
        ],
        "sessions": 23,
        "bestLap": "00:43.150",
        "bestDriver": "Ignas M."
    },
    {
        "id": "e1gokart_gdansk",
        "name": "E1GOKART Gdańsk",
        "lat": 54.3683641,
        "lng": 18.4725776,
        "mapsLink": "https://maps.app.goo.gl/CVJR4ztgxxvVeGDv8",
        "color": "#4a8ce8",
        "note": "Indoor circuit · Gdańsk",
        "configs": [
            "2024",
            "2025"
        ],
        "sessions": 8,
        "bestLap": "00:56.220",
        "bestDriver": "Ignas M."
    },
    {
        "id": "kartlandas",
        "name": "Kartlandas Kaunas",
        "lat": 54.91482127742085,
        "lng": 23.84298728162076,
        "mapsLink": "https://maps.app.goo.gl/7Q9SbwwcmwyNqUH56",
        "color": "#e8c84a",
        "note": "High-speed Kaunas circuit",
        "configs": [
            "2025"
        ],
        "sessions": 3,
        "bestLap": "00:25.906",
        "bestDriver": "Povilas L."
    },
    {
        "id": "kartlandas_max",
        "name": "Kartlandas Max",
        "lat": 54.65066751187685,
        "lng": 25.219812673115587,
        "mapsLink": "https://maps.app.goo.gl/ZuopMfesFBDBQPQN7",
        "color": "#e87a4a",
        "note": "Technical indoor circuit",
        "configs": [
            "Kartlandas Max 2026"
        ],
        "sessions": 7,
        "bestLap": "00:38.361",
        "bestDriver": "Kęstas Č."
    },
    {
        "id": "vilko",
        "name": "Vilko Kartodromas",
        "lat": 54.88831631453673,
        "lng": 23.922075279103808,
        "mapsLink": "https://maps.app.goo.gl/9erykKE9f58EYZ9TA",
        "color": "#e84a4a",
        "note": "Technical indoor circuit",
        "configs": [
            "2025",
            "wolf 2025"
        ],
        "sessions": 3,
        "bestLap": "00:18.050",
        "bestDriver": "Kęstas Č."
    },
    {
        "id": "kartcenter_sopot",
        "name": "KartCenter Sopot",
        "lat": 54.4339595,
        "lng": 18.5635584,
        "mapsLink": "https://maps.app.goo.gl/AXFPcDj5CWT7rPX27",
        "color": "#e8e84a",
        "note": "Karting · Gdańsk area",
        "configs": [
            "2025",
            "Summer"
        ],
        "sessions": 2,
        "bestLap": "00:40.573",
        "bestDriver": "Ignas M."
    },
    {
        "id": "balciunu",
        "name": "Balčiūnų",
        "lat": 55.8984413,
        "lng": 23.3544845,
        "mapsLink": "https://maps.app.goo.gl/TW61veC3NJhRTdWq6",
        "color": "#e84ac8",
        "note": "Outdoor circuit · Šiauliai",
        "configs": [
            "2025"
        ],
        "sessions": 7,
        "bestLap": "01:04.020",
        "bestDriver": "Kęstas Č."
    },
    {
        "id": "anyksciu",
        "name": "Anykščių kartodromas",
        "lat": 55.518791,
        "lng": 25.069384,
        "mapsLink": "https://maps.app.goo.gl/2J7pGZfQs3f174tR8",
        "color": "#8ce84a",
        "note": "Outdoor circuit · Anykščiai",
        "configs": [
            "2024"
        ],
        "sessions": 6,
        "bestLap": "00:45.330",
        "bestDriver": "Povilas L."
    },
    {
        "id": "sporta_komplekss_333",
        "name": "Sporta komplekss 333",
        "lat": 56.9501887,
        "lng": 24.4123719,
        "mapsLink": "https://goo.gl/maps/kZR3mou2NyC9NFx26",
        "color": "#4ae8a0",
        "note": "Outdoor circuit · Latvia",
        "configs": [
            "2024"
        ],
        "sessions": 1,
        "bestLap": "00:51.010",
        "bestDriver": "Povilas L."
    },
    {
        "id": "tor_polwysep",
        "name": "Tor Półwysep",
        "lat": 54.7891707,
        "lng": 18.4248715,
        "mapsLink": "https://maps.app.goo.gl/rAMgznAK6mQx8Nwf6",
        "color": "#b84ae8",
        "note": "Outdoor circuit · Władysławowo",
        "configs": [
            "2024",
            "2025"
        ],
        "sessions": 3,
        "bestLap": "00:25.180",
        "bestDriver": "Povilas L."
    },
    {
        "id": "smalininku",
        "name": "Smalininkų kartodromas",
        "lat": 55.0787157,
        "lng": 22.5838659,
        "mapsLink": "https://maps.app.goo.gl/959ZMAV6acyt6uEr8",
        "color": "#e8a84a",
        "note": "Outdoor circuit · Smalininkai",
        "configs": [
            "2024"
        ],
        "sessions": 4,
        "bestLap": "00:59.000",
        "bestDriver": "Povilas L."
    },
    {
        "id": "rudskogen",
        "name": "Rudskogen Motorsenter",
        "lat": 59.3679798,
        "lng": 11.2620216,
        "mapsLink": "https://maps.app.goo.gl/BHE3Yt1iVqcHmGkv7",
        "color": "#e85a5a",
        "note": "Motorsport circuit · Norway",
        "configs": [
            "Summer"
        ],
        "sessions": 2,
        "bestLap": "01:07.080",
        "bestDriver": "Vaidas R."
    },
    {
        "id": "kartcenter_gdansk",
        "name": "KartCenter Gdańsk Gokarty",
        "lat": 54.352628,
        "lng": 18.5928151,
        "mapsLink": "https://maps.app.goo.gl/RUBF4Y86mvd37qu67",
        "color": "#5ab0e8",
        "note": "Karting · Gdańsk",
        "configs": [
            "2025"
        ],
        "sessions": 1,
        "bestLap": "00:22.840",
        "bestDriver": "Povilas L."
    },
    {
        "id": "karting_salou",
        "name": "Karting Salou",
        "lat": 41.092111,
        "lng": 1.1296976,
        "mapsLink": "https://maps.app.goo.gl/H4DpdF6T1XHRE6239",
        "color": "#e89a4a",
        "note": "Outdoor circuit · Spain",
        "configs": [
            "2024"
        ],
        "sessions": 1,
        "bestLap": "00:51.862",
        "bestDriver": "Justas Ž."
    },
    {
        "id": "awix_racing_arena",
        "name": "Awix Racing Arena",
        "lat": 53.0184783,
        "lng": 18.5440845,
        "mapsLink": "https://maps.app.goo.gl/ybcsyhCrN3D1E2XbA",
        "color": "#9a4ae8",
        "note": "Karting · Bydgoszcz",
        "configs": [
            "2024"
        ],
        "sessions": 1,
        "bestLap": "01:02.505",
        "bestDriver": "Povilas L."
    },
    {
        "id": "kartlandas_vilnius",
        "name": "Kartlandas Vilnius",
        "lat": 0,
        "lng": 0,
        "mapsLink": "https://maps.app.goo.gl/gdUVyVfv8P7JUnzH6",
        "color": "#aaaaaa",
        "note": "Generated circuit",
        "configs": [
            "2026"
        ],
        "sessions": 1,
        "bestLap": "01:11.334",
        "bestDriver": "Povilas L."
    },
    {
        "id": "gokarting_center_krakow",
        "name": "GOKARTING CENTER KRAKOW",
        "lat": 50.02719152362129,
        "lng": 20.050499873015085,
        "mapsLink": "https://maps.app.goo.gl/fbAaPCaugyx4FDjYA",
        "color": "#4a4ae8",
        "note": "Major Polish venue",
        "configs": [
            "2025"
        ],
        "sessions": 1,
        "bestLap": "00:28.790",
        "bestDriver": "Ignas M."
    },
    {
        "id": "race_time",
        "name": "Race Time",
        "lat": 55.9084559,
        "lng": 21.0999881,
        "mapsLink": "https://maps.app.goo.gl/dRBrDVFfcDvgQaCo6",
        "color": "#4ae8c8",
        "note": "Outdoor circuit · Klaipėda",
        "configs": [
            "Summer"
        ],
        "sessions": 2,
        "bestLap": "01:15.999",
        "bestDriver": "Povilas L."
    }
]