[
    {
        "id": "plytinės_kartodromas",
        "name": "Plytinės Kartodromas",
        "lat": 54.7250099,
        "lng": 25.3467219,
        "mapsLink": "https://maps.app.goo.gl/AmF51NGm8bysceeN9",
        "color": "hsl(269, 78%, 62%)",
        "configs": [
            "Winter",
            "Summer"
        ],
        "sessions": 23,
        "bestLap": "00:43.150",
        "bestDriver": "Ignas M."
    },
    {
        "id": "speedway",
        "name": "Speedway",
        "lat": 54.7972092,
        "lng": 24.429372,
        "mapsLink": "https://maps.app.goo.gl/oYmMNt3N2fXehzVf9",
        "color": "hsl(182, 78%, 62%)",
        "configs": [
            "Winter 2026",
            "Rain",
            "3 konfiguracija"
        ],
        "sessions": 14,
        "bestLap": "00:44.327",
        "bestDriver": "Povilas L."
    },
    {
        "id": "gokarting_center_krakow",
        "name": "GOKARTING CENTER KRAKOW",
        "lat": 50.0271708,
        "lng": 20.0478606,
        "mapsLink": "https://maps.app.goo.gl/fbAaPCaugyx4FDjYA",
        "color": "hsl(305, 78%, 62%)",
        "configs": [
            "2025"
        ],
        "sessions": 1,
        "bestLap": "00:28.790",
        "bestDriver": "Ignas M."
    },
    {
        "id": "rudskogen_motorsenter",
        "name": "Rudskogen Motorsenter",
        "lat": 59.3679798,
        "lng": 11.2620216,
        "mapsLink": "https://maps.app.goo.gl/BHE3Yt1iVqcHmGkv7",
        "color": "hsl(21, 78%, 62%)",
        "configs": [
            "Summer"
        ],
        "sessions": 1,
        "bestLap": "01:07.080",
        "bestDriver": "Vaidas R."
    },
    {
        "id": "kartlandas_max",
        "name": "Kartlandas Max",
        "lat": 54.6621119,
        "lng": 25.2017819,
        "mapsLink": "https://maps.app.goo.gl/ZuopMfesFBDBQPQN7",
        "color": "hsl(292, 78%, 62%)",
        "configs": [
            "Kartlandas Max 2026"
        ],
        "sessions": 7,
        "bestLap": "00:38.361",
        "bestDriver": "Kęstas Č."
    },
    {
        "id": "kartlandas_kaunas",
        "name": "Kartlandas Kaunas",
        "lat": 54.9146582,
        "lng": 23.8407337,
        "mapsLink": "https://maps.app.goo.gl/7Q9SbwwcmwyNqUH56",
        "color": "hsl(116, 78%, 62%)",
        "configs": [
            "2025"
        ],
        "sessions": 3,
        "bestLap": "00:25.906",
        "bestDriver": "Povilas L."
    },
    {
        "id": "vilko_kartodromas",
        "name": "Vilko Kartodromas",
        "lat": 54.8883225,
        "lng": 23.9197686,
        "mapsLink": "https://maps.app.goo.gl/9erykKE9f58EYZ9TA",
        "color": "hsl(96, 78%, 62%)",
        "configs": [
            "wolf 2025"
        ],
        "sessions": 2,
        "bestLap": "00:18.050",
        "bestDriver": "Kęstas Č."
    }
]